{
"type": "FeatureCollection",
"crs": { "type": "name", "properties": { "name": "urn:ogc:def:crs:OGC:1.3:CRS84" } },
                                                                                                                                  
"features": [
{ "type": "Feature", "properties": { "Name": "Annex Ale Project", "Address": "4323 1 St SE, Calgary, AB T2G 2L2", "Web": "http://www.annexales.com/welcome", "Image": "annex.png" }, "geometry": { "type": "Point", "coordinates": [ -114.062266, 51.014764 ] } },
{ "type": "Feature", "properties": { "Name": "Banded Peak Brewing", "Address": "119, 519 34 Avenue Southeast, Calgary, AB T2G 1V1", "Web": "http://bandedpeakbrewing.com", "Image": "bandedpeak.jpg" }, "geometry": { "type": "Point", "coordinates": [ -114.051453, 51.022832 ] } },
{ "type": "Feature", "properties": { "Name": "Big Rock Brewery", "Address": "5555 76 Ave SE, Calgary, AB T2C 4L8", "Web": "https://bigrockbeer.com", "Image": "bigrock.png" }, "geometry": { "type": "Point", "coordinates": [ -113.954905, 50.984626 ] } },
{ "type": "Feature", "properties": { "Name": "Boiling Oar Brewing", "Address": "7930 51 St SE, Calgary, AB T2C 4R2", "Web": "http://www.boilingoar.com", "Image": "boilingoar.png" }, "geometry": { "type": "Point", "coordinates": [ -113.959561, 50.981687 ] } },
{ "type": "Feature", "properties": { "Name": "Born Colorado Brewing", "Address": "414 36 Ave SE Unit 3, Calgary, AB T2G 1W4", "Web": "http://borncoloradobrewing.com", "Image": "borncolorado.png" }, "geometry": { "type": "Point", "coordinates": [ -114.05425, 51.021631 ] } },
{ "type": "Feature", "properties": { "Name": "Brewsters - Foothills", "Address": "5519 53 St SE, Calgary, AB T2C 4V1", "Web": "https://brewsters.ca", "Image": "brewsters.jpg" }, "geometry": { "type": "Point", "coordinates": [ -113.957441, 51.003418 ] } },
{ "type": "Feature", "properties": { "Name": "Brewsters - Lake Bonavista", "Address": "755 Lake Bonavista Dr SE, Calgary, AB T2J 0N3", "Web": "https://brewsters.ca", "Image": "brewsters.jpg" }, "geometry": { "type": "Point", "coordinates": [ -114.047312, 50.942068 ] } },
{ "type": "Feature", "properties": { "Name": "Brewsters - McKenzie Towne", "Address": "11 McKenzie Towne Ave SE, Calgary, AB T2Z 0S8", "Web": "https://brewsters.ca", "Image": "brewsters.jpg" }, "geometry": { "type": "Point", "coordinates": [ -113.961487, 50.916787 ] } },
{ "type": "Feature", "properties": { "Name": "Caravel Craft Brewery", "Address": "Bay #12 10221 15 Street NE, Calgary, AB T3J 0T1", "Web": "https://www.caravelbrewery.com", "Image": "caravel.jpg" }, "geometry": { "type": "Point", "coordinates": [ -114.02559, 51.144321 ] } },
{ "type": "Feature", "properties": { "Name": "Citizen Brewing Company", "Address": "227 35 Ave NE, Calgary, AB T2E 2K5", "Web": "http://citizenbrewingcompany.com", "Image": "citizen.png" }, "geometry": { "type": "Point", "coordinates": [ -114.058417, 51.083992 ] } },
{ "type": "Feature", "properties": { "Name": "Cold Garden", "Address": "1100 11 St SE, Calgary, AB T2G 4T3", "Web": "https://www.coldgarden.ca", "Image": "coldgarden.png" }, "geometry": { "type": "Point", "coordinates": [ -114.03671, 51.039586 ] } },
{ "type": "Feature", "properties": { "Name": "Common Crown Brewing", "Address": "943 28 St NE, Calgary, AB T2A 7X1", "Web": "https://www.commoncrown.ca", "Image": "commoncrown.png" }, "geometry": { "type": "Point", "coordinates": [ -113.993934, 51.06117 ] } },
{ "type": "Feature", "properties": { "Name": "Dandy Brewing Company", "Address": "1826 25 Ave NE, Unit 11, Calgary, AB T2E 7K1", "Web": "http://thedandybrewingcompany.com", "Image": "dandy.jpg" }, "geometry": { "type": "Point", "coordinates": [ -114.014851, 51.07515 ] } },
{ "type": "Feature", "properties": { "Name": "Elite Brewing & Cidery", "Address": "1319 Edmonton Trail NE, Calgary, AB T2E 3K6", "Web": "https://www.elitebrewing.com", "Image": "elitebrewing.png" }, "geometry": { "type": "Point", "coordinates": [ -114.056618, 51.063985 ] } },
{ "type": "Feature", "properties": { "Name": "Good Mood Brewery", "Address": "#2123, 4416 64 Ave SE, Calgary, AB T2C 2B3", "Web": "https://goodmoodbrewery.com", "Image": "goodmood.png" }, "geometry": { "type": "Point", "coordinates": [ -113.972176, 50.996947 ] } },
{ "type": "Feature", "properties": { "Name": "High Line Brewing", "Address": "1318 9 Ave SE #113, Calgary, AB T2G 0T3", "Web": "http://highlinebrewing.com", "Image": "highline.jpg" }, "geometry": { "type": "Point", "coordinates": [ -114.032825, 51.041074 ] } },
{ "type": "Feature", "properties": { "Name": "Last Best Brewing", "Address": "607 11 Ave SW, Calgary, AB T2R 0E1", "Web": "http://lastbestbrewing.com", "Image": "lastbest.png" }, "geometry": { "type": "Point", "coordinates": [ -114.074662, 51.042449 ] } },
{ "type": "Feature", "properties": { "Name": "Legend 7 Brewing", "Address": "4025 9 St SE, Calgary, AB T2G 3C7", "Web": "https://www.legend7brewing.com", "Image": "legend7.png" }, "geometry": { "type": "Point", "coordinates": [ -114.041027, 51.018643 ] } },
{ "type": "Feature", "properties": { "Name": "Marda Loop Brewing", "Address": "3523 18 St SW, Calgary, AB T2T 4T9", "Web": "https://www.mardaloopbrewing.com", "Image": "mardaloop.png" }, "geometry": { "type": "Point", "coordinates": [ -114.105245, 51.022226 ] } },
{ "type": "Feature", "properties": { "Name": "Mill Street Brewpub", "Address": "219 17 Ave SW, Calgary, AB T2S 0A4", "Web": "http://millstreetbrewery.com/calgary-brew-pub", "Image": "millstreet.png" }, "geometry": { "type": "Point", "coordinates": [ -114.06727, 51.037666 ] } },
{ "type": "Feature", "properties": { "Name": "Minhas Micro Brewery", "Address": "1314 44 Ave NE, Calgary, AB T2E 6L6", "Web": "http://minhasbrewery.com/minhas-micro-brewery-calgary", "Image": "minhas.png" }, "geometry": { "type": "Point", "coordinates": [ -114.031506, 51.092016 ] } },
{ "type": "Feature", "properties": { "Name": "New Level Brewing", "Address": "7005 Fairmount Dr SE #4140, Calgary, AB T2H 0J1", "Web": "http://newlevelbrewing.ca", "Image": "newlevel.png" }, "geometry": { "type": "Point", "coordinates": [ -114.064660, 50.991607 ] } },
{ "type": "Feature", "properties": { "Name": "Paddy's Barbecue & Brewery", "Address": "3610 Burnsland Rd SE, Calgary, AB T2G 3Z2", "Web": "https://paddysbrewbecue.com", "Image": "paddys.png" }, "geometry": { "type": "Point", "coordinates": [ -114.057579, 51.022839 ] } },
{ "type": "Feature", "properties": { "Name": "Prairie Dog Brewing", "Address": "105D 58 Ave SE, Calgary, AB T2H 0N8", "Web": "https://www.prairiedogbrewing.ca", "Image": "prairiedog.png" }, "geometry": { "type": "Point", "coordinates": [ -114.062828, 51.001053 ] } },
{ "type": "Feature", "properties": { "Name": "Railyard Brewing", "Address": "10301 19 St NE Unit 121, Calgary, AB T3J 0R1", "Web": "https://www.railyardbrewing.ca", "Image": "railyard.png" }, "geometry": { "type": "Point", "coordinates": [ -114.014027, 51.145562 ] } },
{ "type": "Feature", "properties": { "Name": "Red Bison Brewery", "Address": "3016 10 Ave NE Unit 111, Calgary, AB T2A 6A3", "Web": "http://redbisonbrewery.com", "Image": "redbison.jpg" }, "geometry": { "type": "Point", "coordinates": [ -113.991203, 51.06234 ] } },
{ "type": "Feature", "properties": { "Name": "Tool Shed Brewing Company", "Address": "801 30 St NE, Calgary, AB T2A 5L7", "Web": "http://toolshedbrewing.com", "Image": "toolshed.jpg" }, "geometry": { "type": "Point", "coordinates": [ -113.98974, 51.059661 ] } },
{ "type": "Feature", "properties": { "Name": "Trolley 5 Brewpub", "Address": "728 17 Ave SW, Calgary, AB T2T 4M2", "Web": "http://trolley5.com", "Image": "trolley5.png" }, "geometry": { "type": "Point", "coordinates": [ -114.078458, 51.037953 ] } },
{ "type": "Feature", "properties": { "Name": "Village Brewery", "Address": "5000 12a St SE, Calgary, AB T2G 5K9", "Web": "https://www.villagebrewery.com", "Image": "village.jpg" }, "geometry": { "type": "Point", "coordinates": [ -114.035018, 51.009477 ] } },
{ "type": "Feature", "properties": { "Name": "Wild Rose Brewery", "Address": "4580 Quesnay Wood Dr SW, Calgary, AB T3E 7J3", "Web": "https://wildrosebrewery.com", "Image": "wildrose.png" }, "geometry": { "type": "Point", "coordinates": [ -114.122631, 51.014525 ] } },
{ "type": "Feature", "properties": { "Name": "Zero Issue Brewing", "Address": "4210 12 St NE, Calgary, AB T2E 6K9", "Web": "https://www.zeroissuebeer.com", "Image": "zeroissue.jpg" }, "geometry": { "type": "Point", "coordinates": [ -114.03172, 51.089353 ] } }
]
}
